Station_Name,Open_Date,Open_Year,BOROUGH,Latitude,Longitude,EV Level2 EVSE Num,EV DC Fast Count,Groups With Access Code
2 Bedford Park Blvd W,2021-11-05,2021,BRONX,40.875421,-73.893941,4,NA,Public
35 Red Cross Pl,2022-09-01,2022,BROOKLYN,40.699487,-73.989516,6,NA,Public
10 Reade St,2024-01-25,2024,MANHATTAN,40.713898,-74.00434,2,NA,Public
STATION 4TH FL MOTORGATE #1,2020-12-03,2020,MANHATTAN,40.764429,-73.946793,2,NA,Public
Walgreens,2018-03-07,2018,BROOKLYN,40.656459,-73.977527,NA,1,Public
The Somerset - Garage 1st Floor,2022-11-20,2022,MANHATTAN,40.767348,-73.953832,20,NA,Public
NYC FLEET DPR_ICAHN_1_L3,2020-12-12,2020,MANHATTAN,40.792194,-73.92455,NA,1,Public
Icon Parking 101 West End Ave - Tesla Destination,2016-01-21,2016,MANHATTAN,40.775065,-73.988572,3,NA,Public
BRI - Bay Ridge Municipal Parking Garage,2015-06-01,2015,BROOKLYN,40.621698,-74.02567,5,NA,Public
266 13th St,2022-07-07,2022,BROOKLYN,40.667017,-73.988698,2,NA,Public
Rapidpark 351 East 83rd - Tesla Destination,2018-05-24,2018,MANHATTAN,40.775123,-73.951193,3,NA,Public
Rapid Park - 204 W 101st 1st Floor,2024-05-02,2024,MANHATTAN,40.79743,-73.9687,4,NA,Public
203 E 71st St.,2022-05-17,2022,MANHATTAN,40.76894,-73.96047,4,NA,Public
NE Bronx YMCA - Parking Lot,2021-12-13,2021,BRONX,40.883,-73.8421,4,NA,Public
One Gracie Terrace - Basement Level 1,2022-12-06,2022,MANHATTAN,40.77245,-73.945767,10,NA,Public
CENTERS HEALTHC EV-4,2024-02-14,2024,BROOKLYN,40.673237,-73.925718,2,NA,Public
GGMC Parking 51-53 E 76th St Carlyle Hotel - Tesla Destination,2015-09-25,2015,MANHATTAN,40.774207,-73.96282,2,NA,Public
92746 CHARGEPOINT 1,2022-08-18,2022,MANHATTAN,40.764935,-73.96063,2,NA,Public
Icon Parking 330 W 58th Street - Tesla Destination,2016-01-21,2016,MANHATTAN,40.767879,-73.983656,3,NA,Public
"The Standard, High Line - Tesla Destination",2017-01-24,2017,MANHATTAN,40.740939,-74.00824,3,NA,Public
EVolve NY JFK Airport,2021-09-02,2021,QUEENS,40.65608,-73.808090000000007,NA,10,Public
101 E 78th St,2021-08-21,2021,MANHATTAN,40.774878,-73.960671,2,NA,Public
Icon 376 Greenwich Street - Tesla Destination,2017-07-17,2017,MANHATTAN,40.719825,-74.010137,3,NA,Public
Standard Parking 20 W 13th Street - Tesla Destination,2017-01-27,2017,MANHATTAN,40.735706,-73.995058,3,NA,Public
Standard Parking 800 6th Ave - Tesla Destination,2017-07-17,2017,MANHATTAN,40.745842,-73.990103,3,NA,Public
Rapid Park - 44 State St,2021-10-28,2021,BROOKLYN,40.6918,-73.99829,6,NA,Public
CORP COMM 3 STATION 5 CC3,2023-01-26,2023,STATEN ISLAND,40.604322,-74.179683,2,NA,Public
HAMPTON INN STATION 4,2021-01-27,2021,STATEN ISLAND,40.612678,-74.178885,2,NA,Public
3474 Putnam Place,2021-06-25,2021,BRONX,40.879413,-73.875485,2,NA,Public
iPark NYC 2234 North 6th - Tesla Destination,2015-09-18,2015,BROOKLYN,40.71949,-73.963312,3,NA,Public
87-15 204th St - Garage,2024-06-10,2024,QUEENS,40.722752,-73.76245,31,NA,Public
449 East 49th Street,2022-02-08,2022,MANHATTAN,40.75267,-73.96482,6,NA,Public
iPark NYC 75 Wall Street - Tesla Destination,2015-06-24,2015,MANHATTAN,40.704776,-74.008276,3,NA,Public
PANYNJ JFK Y GARAGE 1,2021-01-27,2021,QUEENS,40.645659,-73.779481,2,NA,Public
Icon Parking - Claridge 87 Parking,2022-07-24,2022,MANHATTAN,40.779687,-73.952595,1,NA,Public
"Brooklyn, NY - 625 Atlantic Avenue - Tesla Destination",2024-07-01,2024,BROOKLYN,40.68484,-73.97566,10,NA,Public
597 Clarkson Ave,2021-10-16,2021,BROOKLYN,40.656102,-73.940436,4,NA,Public
iPark 3 E 67th Street - Tesla Destination,2017-03-10,2017,MANHATTAN,40.769061,-73.96876,3,NA,Public
Rapidpark 124 W 20th Street - Tesla Destination,2017-06-16,2017,MANHATTAN,40.741554,-73.995403,3,NA,Public
Icon Parking E 72nd Street - Tesla Destination,2016-04-30,2016,MANHATTAN,40.766554,-73.952905,5,NA,Public
Rapidpark 25-27 Beekman Street - Tesla Destination,2017-06-13,2017,MANHATTAN,40.710786,-74.006017,3,NA,Public
Icon Parking 5 E 22nd Street - Tesla Destination,2016-04-30,2016,MANHATTAN,40.740458,-73.989037,3,NA,Public
201 Brighton 1st Rd - Garage,2023-01-01,2023,BROOKLYN,40.575202,-73.966603,8,NA,Public
435 E. 55th St.,2022-02-07,2022,MANHATTAN,40.75657,-73.96226,4,NA,Public
Quik Park Armory Parking Inc. - Tesla Destination,2017-01-27,2017,BROOKLYN,40.692635,-73.969935,2,NA,Public
Parkit 200 West End Ave - Tesla Destination,2015-07-08,2015,MANHATTAN,40.778221,-73.985072,5,NA,Public
IMPark 302 2nd St - Tesla Destination,2019-03-31,2019,BROOKLYN,40.674312,-73.98488,4,NA,Public
Paragon Honda,2024-04-24,2024,QUEENS,40.753588,-73.903613000000007,NA,2,Public
Enterprise 284 Mott St - Underground garage,2023-02-07,2023,MANHATTAN,40.724324,-73.994201,4,NA,Public
Icon Parking 14-26 William Street - Tesla Destination,2016-04-30,2016,MANHATTAN,40.704514,-74.01074,3,NA,Public
Icon Parking 1350 Avenue of the Americas - Tesla Destination,2015-08-07,2015,MANHATTAN,40.762855,-73.977795,3,NA,Public
20RTAC STATION EE52,2023-05-18,2023,MANHATTAN,40.716133,-74.01556,2,NA,Public
New Tech Energy,2022-09-15,2022,BROOKLYN,40.628872,-73.971992,1,NA,Public - Credit card at all times
Standard Parking 58 W 58th Street - Tesla Destination,2017-03-10,2017,MANHATTAN,40.76476,-73.976153,3,NA,Public
NYU NYU # 2,2021-11-11,2021,MANHATTAN,40.728283,-73.997251,2,NA,Public
The Bridge Towers 7,2023-11-03,2023,MANHATTAN,40.847563,-73.934481,61,NA,Public
210 Central Park,2024-07-11,2024,MANHATTAN,40.767,-73.97989,4,NA,Public
Parkright 738 Greenwich Street - Tesla Destination,2016-07-19,2016,MANHATTAN,40.734412,-74.007184,3,NA,Public
Sutton Place North Garage - Tesla Destination,2018-07-17,2018,MANHATTAN,40.75552,-73.962734,2,NA,Public
540 WAVERLY 5,2024-01-05,2024,BROOKLYN,40.682187,-73.965853,2,NA,Public
CORP COMM 3 STATION 8 CC3,2023-01-26,2023,STATEN ISLAND,40.604324,-74.179675,2,NA,Public
320 Mason Ave,2022-07-15,2022,MANHATTAN,40.584984,-74.088044,4,NA,Public
MPG 340 East 93rd - Tesla Destination,2018-05-23,2018,MANHATTAN,40.781413,-73.946377,3,NA,Public
StuyTown 528 E 20 - Garage 2,2021-09-21,2021,MANHATTAN,40.7335,-73.9767,19,NA,Public
StuyTown 325 Ave C - Garage 3,2022-05-20,2022,MANHATTAN,40.7326,-73.9748,19,NA,Public
383 Court St,2021-08-28,2021,BROOKLYN,40.680484,-73.996719,2,NA,Public
Quik Park 600 West 42nd Street (Silver Towers) LLC - Tesla Destination,2016-03-10,2016,MANHATTAN,40.761018,-73.99878,3,NA,Public
1 WATERLINE STATION#3,2022-03-08,2022,MANHATTAN,40.773005,-73.992868,2,NA,Public
INDUSTRY CITY LOT B WEST,2019-05-03,2019,BROOKLYN,40.659333,-74.006419,2,NA,Public
NYC FLEET DPRWFMARNA_5_L3,2023-11-04,2023,QUEENS,40.76038,-73.85531,NA,1,Public
Quik Park Hudson 180 LLC - Tesla Destination,2015-11-20,2015,MANHATTAN,40.778412,-73.988294,3,NA,Public
PANYNJ LGATCGARAGE 5-3,2024-04-06,2024,QUEENS,40.769509,-73.865421,1,NA,Public
DEEPDALE MANAGEMENT,2023-08-15,2023,QUEENS,40.757564,-73.728618,2,NA,Public
420 Gates - Garage,2022-02-26,2022,BROOKLYN,40.6863,-73.9495,7,NA,Public
167-149 Meeker Ave,2021-10-26,2021,BROOKLYN,40.714318,-73.953186,6,NA,Public
Icon Parking 203 E 61 Street - Tesla Destination,2016-04-30,2016,MANHATTAN,40.762678,-73.965447,3,NA,Public
GGMC Parking 66 Rockwell Pl Garage - Tesla Destination,2015-11-13,2015,BROOKLYN,40.688086,-73.979234,3,NA,Public
134 N 4th St,2021-12-22,2021,BROOKLYN,40.716441,-73.960043,4,NA,Public
2750 East 12th St Series,2024-10-07,2024,BROOKLYN,40.584291,-73.957752,2,NA,Public
Barclay Tower - Garage,2024-02-13,2024,MANHATTAN,40.712224,-74.009106,20,NA,Public
iPark NYC 246 E 45 Street - Tesla Destination,2016-05-31,2016,MANHATTAN,40.751847,-73.971348,3,NA,Public
330 E 80th St - Garage,2022-07-23,2022,MANHATTAN,40.773622,-73.95325,25,NA,Public
MTP Parking 363 Bond Street - Tesla Destination,2019-01-18,2019,BROOKLYN,40.678155,-73.990443,4,NA,Public
Icon Parking 150 Charles Street - Tesla Destination,2017-11-02,2017,MANHATTAN,40.734006,-74.009079,3,NA,Public
NYC FLEET DPR_ICAHN_2_L3,2021-01-27,2021,MANHATTAN,40.79237,-73.924644,NA,1,Public
Superior Ink,2019-06-21,2019,MANHATTAN,40.737537,-74.00983,2,NA,Public
300 E 54th St - Parking Garage,2023-07-17,2023,MANHATTAN,40.757093,-73.966349,10,NA,Public
123 Leonard St,2023-06-28,2023,MANHATTAN,40.716079,-74.002165,4,NA,Public
PLAZA HYUNDAI PUBLIC LEVEL 3,2023-12-29,2023,BROOKLYN,40.618364,-73.945066,NA,1,Public
STATION 4TH FL MOTORGATE 3,2020-11-17,2020,MANHATTAN,40.764464,-73.946924,2,NA,Public
MPG Parking,2022-07-27,2022,MANHATTAN,40.758967,-73.995189,2,NA,Public
iPark 314 W 120th Street - Tesla Destination,2016-12-09,2016,MANHATTAN,40.807356,-73.954354,3,NA,Public
First Avenue Parking,2022-06-15,2022,MANHATTAN,40.745096,-73.971921,2,NA,Public
iPark 112 E 65th Street - Tesla Destination,2018-02-26,2018,MANHATTAN,40.766495,-73.9667,3,NA,Public
City Parking E 61st Street - Tesla Destination,2017-06-16,2017,MANHATTAN,40.760289,-73.959501,3,NA,Public
NYC FLEET DPRWFMARINA-S3,2021-07-24,2021,QUEENS,40.760424,-73.856316,1,NA,Public
81-09 41st Ave,2022-08-18,2022,QUEENS,40.745853,-73.884134,2,NA,Public
AMNH-PARKING STATION 1,2024-09-30,2024,MANHATTAN,40.781454,-73.973835,2,NA,Public
iPark NYC E 80th Street - Tesla Destination,2016-03-07,2016,MANHATTAN,40.77331,-73.952621,3,NA,Public
HCBR STATION 1,2022-06-21,2022,BROOKLYN,40.619335,-74.029466,1,NA,Public
Icon Parking 360 E 65th - Tesla Destination,2018-08-24,2018,MANHATTAN,40.766853,-73.967711,4,NA,Public
Riverdale Fast Parking,2022-09-15,2022,BRONX,40.879501,-73.903603,8,NA,Public - Credit card at all times
Rivers Bend - Garage,2022-05-23,2022,MANHATTAN,40.776952,-73.946235,20,NA,Public
iPark 10 West 15th - Tesla Destination,2018-05-30,2018,MANHATTAN,40.737171,-73.994331,3,NA,Public
532 Neptune Avenue,2023-06-13,2023,BROOKLYN,40.57978,-73.97439,8,NA,Public
Parkit 10 Wooster St. - Tesla Destination,2015-05-21,2015,MANHATTAN,40.721658,-74.004402,3,NA,Public
Quik Park 311 West Broadway LLC - Tesla Destination,2016-03-10,2016,MANHATTAN,40.721801,-74.004237,2,NA,Public
364 St Marks Ave - Parking Lot,2023-02-19,2023,BROOKLYN,40.677317,-73.963266,4,NA,Public
Quik Park West 57 LLC - Tesla Destination,2015-05-21,2015,MANHATTAN,40.764259,-73.974972,3,NA,Public
Enterprise Parking 545 Washington Ave - Tesla Destination,2019-03-31,2019,BROOKLYN,40.681953,-73.964405,4,NA,Public
1 WATERLINE STATION#9,2023-11-08,2023,MANHATTAN,40.772916,-73.99263,2,NA,Public
NYC FLEET DPRWFMARNA_1_L3,2024-04-06,2024,QUEENS,40.760611,-73.85697,NA,1,Public
Standard Parking 21 East 15th Street - Tesla Destination,2016-12-09,2016,MANHATTAN,40.736293,-73.991939,3,NA,Public
1170 Ocean Ave - Garage,2022-10-20,2022,BROOKLYN,40.633884,-73.958535,8,NA,Public
Kings County Parking - Tesla Destination,2017-06-16,2017,BROOKLYN,40.65601,-73.940902,2,NA,Public
444 W 19th St - Basement,2022-11-30,2022,MANHATTAN,40.744837,-74.004912,6,NA,Public
Bruno's Bakery and Restaurant Hylan Blvd - Tesla Destination,2019-08-28,2019,STATEN ISLAND,40.588091,-74.089936,2,NA,Public
The Caledonia,2022-07-19,2022,MANHATTAN,40.743832,-74.006578,2,NA,Public
MPG 201 E 56th - Tesla Destination,2018-05-24,2018,MANHATTAN,40.759437,-73.96767,3,NA,Public
EVPassport - 200 E 24th St Garage,2023-03-09,2023,MANHATTAN,40.739253,-73.982328999999993,2,NA,Public - Credit card at all times
2244 Westchester Ave,2023-12-26,2023,BRONX,40.83401,-73.85045,1,NA,Public - Credit card at all times
831 3rd Ave,2021-10-30,2021,BROOKLYN,40.656766,-74.004802,6,NA,Public
Honda of Staten Island,2024-05-08,2024,STATEN ISLAND,40.597511,-74.083684,1,1,Public
One Sutton Pl N - Garage 2nd Floor,2023-02-01,2023,MANHATTAN,40.760155,-73.959496,10,NA,Public
Standard Parking 200 Cadman Plaza West - Tesla Destination,2018-05-24,2018,BROOKLYN,40.698707,-73.992365,3,NA,Public
Wingate by Wyndham Haven Park - Tesla Destination,2024-07-01,2024,MANHATTAN,40.812851,-73.928313,4,NA,Public
Parkright 39 E 29th Street - Tesla Destination,2015-11-13,2015,MANHATTAN,40.744244,-73.984116,3,NA,Public
44 W 62nd St.,2022-02-09,2022,MANHATTAN,40.7708,-73.98323,4,NA,Public
The Andover - Garage,2023-03-06,2023,MANHATTAN,40.777778,-73.946111,20,NA,Public
TATABROOKFIELD #5,2021-01-27,2021,MANHATTAN,40.755142,-73.9556,1,NA,Public
Rapidpark 35 E 75th Street - Tesla Destination,2017-08-17,2017,MANHATTAN,40.77364,-73.963722,3,NA,Public
Propark 401 W 110th Street - Tesla Destination,2017-08-23,2017,MANHATTAN,40.802151,-73.961705,3,NA,Public
The State-Whitehall Co - Tesla Destination,2024-07-01,2024,MANHATTAN,40.706103,-74.007398,2,NA,Public
Park Kwik - 211 Atlantic - Tesla Destination,2019-10-11,2019,BROOKLYN,40.691073,-73.990197,6,NA,Public
Resorts World Parking Garage - 3rd Floor,2024-04-08,2024,QUEENS,40.67374,-73.832676,49,NA,Public
20RTAC GARAGE BOTTOM,2023-02-21,2023,MANHATTAN,40.716131,-74.015548,2,NA,Public
Parkit 27 N Moore Street - Tesla Destination,2015-11-13,2015,MANHATTAN,40.719869,-74.007447,3,NA,Public
Icon Parking 12 East 9th Street - Tesla Destination,2016-01-21,2016,MANHATTAN,40.732519,-73.995135,3,NA,Public
ImPark Underhill Garage - Tesla Destination,2018-12-19,2018,BROOKLYN,40.677526,-73.965785,4,NA,Public
Icon Parking Wall Park - Tesla Destination,2016-12-29,2016,MANHATTAN,40.705922,-74.010175,3,NA,Public
MPG 500 West 30th - Tesla Destination,2018-05-24,2018,MANHATTAN,40.752205,-74.001493,3,NA,Public
Mall at Bay Plaza - Tesla Supercharger,2019-09-30,2019,BRONX,40.863231,-73.828839,NA,12,Public
CITYLIGHTS 5TH FLOOR 1,2023-09-14,2023,QUEENS,40.744127,-73.95684,2,NA,Public
Icon Parking 35-39 East 61st Street - Tesla Destination,2016-10-13,2016,MANHATTAN,40.764617,-73.969764,3,NA,Public
Angelina's Ristorante - Tesla Destination,2016-01-11,2016,STATEN ISLAND,40.513465,-74.251418,3,NA,Public
Icon Parking 16 W 16th Street - Tesla Destination,2016-01-21,2016,MANHATTAN,40.737891,-73.994058,3,NA,Public
StuyTown 251 Ave C - Garage 5,2022-12-12,2022,MANHATTAN,40.7294,-73.9755,39,NA,Public
GMC 388 Bridge Street - Tesla Destination,2018-04-30,2018,BROOKLYN,40.691469,-73.985446,3,NA,Public
Rapidpark 906 Union Street - Tesla Destination,2017-06-13,2017,BROOKLYN,40.672884,-73.971541,3,NA,Public
GGMC Parking E 74th Street - Tesla Destination,2016-12-28,2016,MANHATTAN,40.769947,-73.956989,3,NA,Public
Champion Parking W 53rd Street - Tesla Destination,2015-08-19,2015,MANHATTAN,40.763279,-73.98086,3,NA,Public
Icon Parking 200 E 65th Street - Tesla Destination,2017-08-17,2017,MANHATTAN,40.765108,-73.963389,3,NA,Public
City World Ford Parts,2024-07-17,2024,BRONX,40.87393,-73.853391,1,NA,Public
575 1st Ave,2022-07-28,2022,MANHATTAN,40.74282,-73.97438,4,NA,Public
Icon Parking 225 W 83 Street - Tesla Destination,2016-04-30,2016,MANHATTAN,40.786099,-73.977303,3,NA,Public
10 Hudson Yards - Tesla Destination,2024-07-01,2024,MANHATTAN,40.752656,-74.001074,16,NA,Public
N Brooklyn YMCA - Parking Lot,2022-03-13,2022,BROOKLYN,40.68505,-73.88217,4,NA,Public
1 WATERLINE STATION#1,2022-03-09,2022,MANHATTAN,40.772896,-73.992536,2,NA,Public
iPark NYC 44 Elizabeth Street - Tesla Destination,2016-02-16,2016,MANHATTAN,40.716966,-73.996707,3,NA,Public
Icon Parking 55 W 14th Street - Tesla Destination,2016-04-30,2016,MANHATTAN,40.737122,-73.996119,3,NA,Public
New York Presbyterian Hospital,2022-09-30,2022,BROOKLYN,40.668552,-73.97869,6,NA,Public
626 Sheepshead Bay Rd - Parking,2021-10-08,2021,BROOKLYN,40.578973,-73.975113,6,NA,Public
CENTERS HEALTHC EV-6,2024-02-14,2024,BROOKLYN,40.673186,-73.925637,2,NA,Public
Quik Park 81 Fleet Place LLC - Tesla Destination,2016-03-11,2016,BROOKLYN,40.693248,-73.981744,3,NA,Public
E 47th Street - Tesla Supercharger,2018-07-23,2018,MANHATTAN,40.753356,-73.971685,NA,4,Public
Icon Parking 300 E 59th Street - Tesla Destination,2016-04-30,2016,MANHATTAN,40.760462,-73.964086,3,NA,Public
Quik Park Garden Lots LLC - Tesla Destination,2016-03-11,2016,MANHATTAN,40.749073,-73.990032,3,NA,Public
GGMC Parking Battery Place - Tesla Destination,2018-02-22,2018,MANHATTAN,40.706965,-74.017971,3,NA,Public
202-35 Foothill Ave - Garage,2024-06-01,2024,QUEENS,40.721218,-73.76195,43,NA,Public
Quik Park 40 Riverside Blvd - Tesla Destination,2016-07-07,2016,MANHATTAN,40.77373,-73.989713,3,NA,Public
987 Willoughby - Garage,2023-03-26,2023,BROOKLYN,40.698822,-73.929621,1,NA,Public
165 E 77 ST Garage,2022-07-27,2022,MANHATTAN,40.773528,-73.959538,1,NA,Public
Icon Parking 515 E 72nd Street - Tesla Destination,2017-11-02,2017,MANHATTAN,40.766545,-73.95292,3,NA,Public
CITYLIGHTS 5TH FLOOR 2,2023-09-14,2023,QUEENS,40.744152,-73.956666,2,NA,Public
RAB EV Concierge Demo 1,2024-10-17,2024,MANHATTAN,40.740971,-74.005901,8,NA,Public
Discount Parking 180 Ashland Place - Tesla Destination,2016-05-06,2016,BROOKLYN,40.689457,-73.978606,2,NA,Public
iPark Eleventh Avenue Garage Corp. - Tesla Destination,2017-02-09,2017,MANHATTAN,40.753049,-74.003333,3,NA,Public
Parkright 670 W 43rd Street - Tesla Destination,2015-11-13,2015,MANHATTAN,40.762189,-73.999714,3,NA,Public
Rapidpark 205 W 101st Street - Tesla Destination,2020-11-03,2020,MANHATTAN,40.797603,-73.968503,3,NA,Public
PANYNJ LGATCGARAGE 5-4,2024-04-06,2024,QUEENS,40.76947,-73.865591,1,NA,Public
301 E. 79th St.,2022-01-14,2022,MANHATTAN,40.76939,-73.96546,4,NA,Public
ABM Parking 13 East 54th Street LLC - Tesla Destination,2017-02-10,2017,MANHATTAN,40.760648,-73.974193,2,NA,Public
Laureate Garage,2021-05-07,2021,MANHATTAN,40.78131,-73.980834,2,NA,Public
Nissan of Staten Island,2018-06-28,2018,STATEN ISLAND,40.581432,-74.097694,1,NA,Public
ABM Parking 475 Park Ave South LLC - Tesla Destination,2017-02-10,2017,MANHATTAN,40.745603,-73.98185,2,NA,Public
"The Standard, East Village - Tesla Destination",2016-12-02,2016,MANHATTAN,40.727797,-73.990746,3,NA,Public
iPark 59-63 Allen Street - Tesla Destination,2018-05-24,2018,MANHATTAN,40.717143,-73.991597,3,NA,Public
Bridge Towers Location 1,2021-11-01,2021,MANHATTAN,40.605198,-74.064384,29,NA,Public
160 W 84th St,2022-07-07,2022,MANHATTAN,40.786312,-73.97569,2,NA,Public
87-30 204th St - Garage,2024-06-06,2024,QUEENS,40.72165,-73.760747,44,NA,Public
352 8th St,2021-12-08,2021,BROOKLYN,40.668517,-73.983283,2,NA,Public
WCS NS1 ASIA,2021-01-27,2021,BRONX,40.846612,-73.876323,2,NA,Public
Parkpro - Lafayette Avenue,2023-08-14,2023,BROOKLYN,40.68886,-73.96266,4,NA,Public
Park Towers South - Tesla Destination,2024-07-01,2024,MANHATTAN,40.76775,-73.983784,6,NA,Public
Staten Island Mall Dave and Busters,2020-08-31,2020,STATEN ISLAND,40.582698,-74.167876,4,NA,Public
Revel - Pier 36,2024-10-08,2024,MANHATTAN,40.710294,-73.984768,NA,5,Public
IPark 255 Schermerhorn - Tesla Destination,2019-03-31,2019,BROOKLYN,40.687913,-73.983039,4,NA,Public
1 WATERLINE STATION#2,2022-03-08,2022,MANHATTAN,40.772952,-73.992622,2,NA,Public
St Tropez Building - Garage,2021-12-19,2021,MANHATTAN,40.763015,-73.960127,10,NA,Public
Rapidpark 920 Park Avenue - Tesla Destination,2017-08-23,2017,MANHATTAN,40.776574,-73.96047,3,NA,Public
Standard Parking 151 W 17th Street - Tesla Destination,2017-07-11,2017,MANHATTAN,40.740243,-73.997591,3,NA,Public
Stop and Shop 508 - Glendale Myrtle Ave,2024-12-10,2024,QUEENS,40.701771,-73.890858,2,NA,Public
GGMC Parking Seven Eleven (Located at 217 E 44th St) - Tesla Destination,2015-09-25,2015,MANHATTAN,40.751867,-73.972873,3,NA,Public
Glenwood Grand Tier Parking - Tesla Destination,2017-04-03,2017,MANHATTAN,40.772574,-73.981951,2,NA,Public
NYC FLEET DPRWFMARNA_3_L3,2023-11-04,2023,QUEENS,40.760345,-73.85537,NA,1,Public
Enterprise 61 - Garage,2022-04-19,2022,MANHATTAN,40.763211,-73.965752,4,NA,Public
CORP COMM 3 STATION 9 CC3,2023-01-26,2023,STATEN ISLAND,40.604082,-74.179499,2,NA,Public
Quik Park Broadway Garage LLC - Tesla Destination,2015-05-21,2015,MANHATTAN,40.765844,-73.982481,3,NA,Public
Enterprise 309 Gold Street - Tesla Destination,2017-02-09,2017,BROOKLYN,40.694841,-73.982849,3,NA,Public
191 East 71st Street,2022-06-23,2022,MANHATTAN,40.76945,-73.96154,4,NA,Public
Dime,2023-05-01,2023,BROOKLYN,40.70983,-73.95767,NA,15,Public - Credit card at all times
Icon Parking 330 E 39th Street - Tesla Destination,2016-04-30,2016,MANHATTAN,40.746851,-73.972901,3,NA,Public
NYC FLEET DPRROCKAWAY30B,2023-06-22,2023,QUEENS,40.592562,-73.762059,1,NA,Public
One Blue Slip-Greenpoint - Tesla Destination,2019-08-28,2019,BROOKLYN,40.736562,-73.959195,5,NA,Public
iPark 386 E 48th Street - Tesla Destination,2017-03-10,2017,MANHATTAN,40.7529,-73.967723,3,NA,Public
Rapidpark 600 Columbus Ave-QBDestinationSiteID52405 - Tesla Destination,2018-05-24,2018,MANHATTAN,40.788614,-73.97118,3,NA,Public
141 E 89th St - Garage,2023-11-02,2023,MANHATTAN,40.776897,-73.948795,6,NA,Public
250 Vesey,2022-09-15,2022,MANHATTAN,40.714113,-74.01581,2,NA,Public - Credit card at all times
Icon Parking 175 W 90th Street - Tesla Destination,2019-03-31,2019,MANHATTAN,40.790046,-73.972531,4,NA,Public
The Ocean - 1 West St Garage,2023-09-29,2023,MANHATTAN,40.705242,-74.016123,20,NA,Public
GGMC Ruppert Car Park - Tesla Destination,2018-01-08,2018,MANHATTAN,40.78098,-73.951145,3,NA,Public
CENTERS HEALTHC EV-5,2024-02-14,2024,BROOKLYN,40.673563,-73.926284,2,NA,Public
Andaz Wall Street - Tesla Destination,2015-07-16,2015,MANHATTAN,40.705115,-74.008089,1,NA,Public
CENTERS HEALTHC EV-1,2024-03-05,2024,BROOKLYN,40.673435,-73.926002,2,NA,Public
Icon Parking 54 Murray Street - Tesla Destination,2018-05-24,2018,MANHATTAN,40.714266,-74.009921,3,NA,Public
East 71st Parking - Basement,2022-12-18,2022,MANHATTAN,40.770094,-73.962964,10,NA,Public
Icon Parking 322 23rd Street - Tesla Destination,2018-01-08,2018,MANHATTAN,40.737533,-73.980437,3,NA,Public
Parkit 403 Lafayette St. - Tesla Destination,2015-05-21,2015,MANHATTAN,40.728287,-73.992746,2,NA,Public
iPark 650 Parking Corp - Tesla Destination,2018-05-24,2018,MANHATTAN,40.768144,-73.966736,3,NA,Public
551W21 SR Capital - Tesla Destination,2016-12-28,2016,MANHATTAN,40.747437,-74.007111,6,NA,Public
Parkit 301 E 64th - Tesla Destination,2015-11-13,2015,MANHATTAN,40.763488,-73.961323,3,NA,Public
333 Schermerhorn Garage - The Hub - Tesla Destination,2019-08-28,2019,BROOKLYN,40.686983,-73.980498,4,NA,Public
540 WAVERLY 4,2024-01-05,2024,BROOKLYN,40.682163,-73.966003,2,NA,Public
1 Hotel Brooklyn Bridge - Tesla Destination,2017-04-06,2017,BROOKLYN,40.701461,-73.995566,7,NA,Public
North 12 Parking (at the William Vale) - Tesla Supercharger,2018-07-23,2018,BROOKLYN,40.721853,-73.956658,NA,4,Public
iPark 530 E 80th Street - Tesla Destination,2017-03-10,2017,MANHATTAN,40.771382,-73.948344,3,NA,Public
3050 Corlear Ave - Nagle Parking Inc. - Tesla Destination,2019-08-28,2019,BRONX,40.880142,-73.907385,4,NA,Public
1 WATERLINE STATION#6,2022-03-10,2022,MANHATTAN,40.772912,-73.992589,2,NA,Public
1 WATERLINE STATION#7,2022-12-05,2022,MANHATTAN,40.772839,-73.992493,2,NA,Public
IMPark 353 4th Ave - Tesla Destination,2019-02-12,2019,BROOKLYN,40.673235,-73.986232,4,NA,Public
59 Allen Street - Tesla Supercharger,2018-12-01,2018,MANHATTAN,40.717153,-73.991869,NA,4,Public
Quikpark 173 W 12th Street - Tesla Destination,2017-07-17,2017,MANHATTAN,40.737108,-74.000358,3,NA,Public
265 E 66th St - Garage,2022-04-19,2022,MANHATTAN,40.76536,-73.96128,12,NA,Public
Rapidpark 15 W 72nd Street - Tesla Destination,2017-04-13,2017,MANHATTAN,40.776813,-73.977083,3,NA,Public
Paramount Tower - Garage,2023-12-29,2023,MANHATTAN,40.748066,-73.974444,20,NA,Public
Icon Parking 1056 5th Avenue - Tesla Destination,2017-08-23,2017,MANHATTAN,40.782031,-73.959484,3,NA,Public
L&L HOLDING CO. STATION 3,2024-04-24,2024,MANHATTAN,40.760378,-73.971062,2,NA,Public
Icon Parking 810 Seventh Ave - Tesla Destination,2016-05-03,2016,MANHATTAN,40.762568,-73.982718,3,NA,Public
Prestige Parking Corp,2022-06-15,2022,MANHATTAN,40.756519,-73.961074,2,NA,Public
GMC Parking 420 E 53rd - Tesla Destination,2018-08-10,2018,MANHATTAN,40.755289,-73.963804,1,NA,Public
Standard Parking Gateway Plaza Garage - Tesla Destination,2017-08-30,2017,MANHATTAN,40.711145,-74.016332,3,NA,Public
Sky Apts - Garage 1st Floor,2022-07-23,2022,MANHATTAN,40.761949,-73.99888,20,NA,Public
Skyline Tower Garage,2024-04-25,2024,QUEENS,40.74848,-73.9445,4,NA,Public - Call ahead
867 Dekalb Ave,2024-01-22,2024,BROOKLYN,40.69273,-73.9417,1,NA,Public - Credit card at all times
73 Starr LLC - Parking Lot,2022-04-19,2022,BROOKLYN,40.7019,-73.9266,4,NA,Public
Icon Parking 40 W 26th Street - Tesla Destination,2016-04-30,2016,MANHATTAN,40.744467,-73.990662,3,NA,Public
Enterprise 38 - Garage,2021-12-06,2021,MANHATTAN,40.757123,-73.99832,4,NA,Public
577 Baltic Street - Adam America Real Estate - Tesla Destination,2017-04-12,2017,BROOKLYN,40.681151,-73.982101,4,NA,Public
Quik Park 808 Garage LLC - Tesla Destination,2015-11-20,2015,MANHATTAN,40.793877,-73.967498,3,NA,Public
Apple West Parking,2020-06-19,2020,MANHATTAN,40.795783,-73.973678,4,NA,Public
RapidPark 600 Columbus Ave-QBDestinationSiteID18637 - Tesla Destination,2016-06-30,2016,MANHATTAN,40.78859,-73.97118,2,NA,Public
"The Carlyle Hotel, A Rosewood Hotel - Tesla Destination",2015-09-25,2015,MANHATTAN,40.77438,-73.963157,2,NA,Public
87-56 Francis Lewis Blvd - Garage,2024-06-07,2024,QUEENS,40.722061,-73.761161,44,NA,Public
TATABROOKFIELD #2,2021-01-27,2021,MANHATTAN,40.755077,-73.955605,1,NA,Public
Energy Plus Site 8,2022-05-22,2022,MANHATTAN,40.781104,-73.984478,1,NA,Public
iPark NYC 549 W 23rd Street - Tesla Destination,2015-05-15,2015,MANHATTAN,40.749255,-74.005914,3,NA,Public
iPark NYC 400 E 35th NYU - Tesla Destination,2015-10-07,2015,MANHATTAN,40.743971,-73.971882,3,NA,Public
Carnegie Hill,2019-06-26,2019,MANHATTAN,40.784865,-73.948526,2,NA,Public
Quik Park Little West LLC - Tesla Destination,2015-05-21,2015,MANHATTAN,40.70663,-74.016916,3,NA,Public
iPark NYC 555 West Garage Corp. - Tesla Destination,2015-06-24,2015,MANHATTAN,40.749296,-74.006017,3,NA,Public
Icon Parking 155 E 29th Street - Tesla Destination,2016-04-30,2016,MANHATTAN,40.742821,-73.980913,3,NA,Public
ImPark 500 4th Ave - Tesla Destination,2018-12-19,2018,BROOKLYN,40.66852,-73.990489,4,NA,Public
CORP COMM 3 STATION 3 CC3,2023-01-26,2023,STATEN ISLAND,40.604086,-74.179358,2,NA,Public
Roger Smith Hotel - Tesla Destination,2017-10-25,2017,MANHATTAN,40.754709,-73.973391,1,NA,Public
Enterprise Parking 219 E 69th St - Tesla Destination,2016-12-09,2016,MANHATTAN,40.767342,-73.960835,3,NA,Public
142 E 31st St.,2022-02-10,2022,MANHATTAN,40.74415,-73.98046,4,NA,Public
MTP Parking 755 Kent Ave - Tesla Destination,2019-01-17,2019,BROOKLYN,40.698671,-73.959625,4,NA,Public
The Crescent - Underground Parking,2023-02-21,2023,QUEENS,40.763705,-73.92767,8,NA,Public
Icon Parking 308 Greenwich - Tesla Destination,2016-04-30,2016,MANHATTAN,40.717686,-74.010613,3,NA,Public
30 Lincoln Plaza - Garage,2021-12-19,2021,MANHATTAN,40.7706,-73.9817,8,NA,Public
30-10 35th Street,2022-08-16,2022,QUEENS,40.765233,-73.918436,2,NA,Public
Riverview East - Garage,2022-01-13,2022,MANHATTAN,40.7438,-73.9769,4,NA,Public
7 Marcus Garvey Blvd,2021-12-04,2021,BROOKLYN,40.700039,-73.941261,2,NA,Public
HAMPTON INN STATION 5,2021-01-27,2021,STATEN ISLAND,40.612706,-74.179076,2,NA,Public
Brooklyn Renaissance Plaza,2022-09-30,2022,BROOKLYN,40.693463,-73.988245,6,NA,Public
60 East 94th Street - Upper Floor,2024-01-11,2024,MANHATTAN,40.785615,-73.954764,10,NA,Public
GMC 111 E 82nd St - Tesla Destination,2016-12-14,2016,MANHATTAN,40.77735,-73.958352,3,NA,Public
QBO - Queens Borough Hall Municipal Parking Garage,2023-06-01,2023,QUEENS,40.714376,-73.826095,31,3,Public
iPark NYC 425 E 58th Street - Tesla Destination,2016-07-19,2016,MANHATTAN,40.758519,-73.961272,3,NA,Public
Yorkville Towers - Garage,2024-01-12,2024,MANHATTAN,40.781919,-73.950508,10,NA,Public
NYC FLEET DPR_ICAHN_3_L3,2021-01-27,2021,MANHATTAN,40.7923,-73.92468,NA,1,Public
10 East 30th St,2022-08-10,2022,MANHATTAN,40.74538,-73.98571,6,NA,Public
Icon Parking 235 W 48th - Tesla Destination,2018-08-10,2018,MANHATTAN,40.76073,-73.985995,4,NA,Public
Century Parking Corp - Tesla Destination,2018-07-17,2018,BRONX,40.878304,-73.915227,4,NA,Public
333 Irving Ave - Garage,2021-12-19,2021,BROOKLYN,40.6984,-73.9129,4,NA,Public
Manhattan Parking Group,2021-05-03,2021,MANHATTAN,40.768721,-73.983487,1,NA,Public
Icon Parking 100 Riverside Blvd. - Tesla Destination,2016-01-21,2016,MANHATTAN,40.775474,-73.989763,3,NA,Public
3500 Dekalb Ave,2021-11-25,2021,BRONX,40.882337,-73.880265,2,NA,Public
Quik Park 86th St. LLC - Tesla Destination,2015-11-20,2015,MANHATTAN,40.775968,-73.947846,3,NA,Public
Castle Hill YMCA - Parking Lot,2022-05-28,2022,BRONX,40.81267,-73.846049,10,NA,Public
iPark NYC 61 Jane Street - Tesla Destination,2015-06-01,2015,MANHATTAN,40.738733,-74.006009,3,NA,Public
395 Lenox Rd,2021-12-17,2021,BROOKLYN,40.654476,-73.946741,4,NA,Public
GGMC Parking Alfred - Tesla Destination,2016-12-28,2016,MANHATTAN,40.771555,-73.986428,3,NA,Public
Rapidpark 9-11 W 100th Street - Tesla Destination,2017-03-14,2017,MANHATTAN,40.794519,-73.963445,3,NA,Public
55 East End Ave,2022-03-24,2022,MANHATTAN,40.772,-73.94639,6,NA,Public
INDUSTRY CITY LOT B EAST,2022-05-12,2022,BROOKLYN,40.659338,-74.006454,2,NA,Public
PANYNJ LGA E GARAGE C1,2020-06-12,2020,MANHATTAN,40.77033,-73.865683,2,NA,Public
Icon Parking 560 Third Ave - Tesla Destination,2016-04-30,2016,MANHATTAN,40.747962,-73.976569,3,NA,Public
GGMC 91 E 9th Street - Tesla Destination,2016-11-14,2016,MANHATTAN,40.730723,-73.990854,3,NA,Public
CORP COMM 3 STATION 1 CC3,2023-01-26,2023,STATEN ISLAND,40.604213,-74.179561,2,NA,Public
Enterprise Parking 200 E 69th St - Tesla Destination,2016-10-20,2016,MANHATTAN,40.767615,-73.961509,2,NA,Public
181 E 73rd Street,2022-05-20,2022,MANHATTAN,40.77082,-73.96068,4,NA,Public
Icon Parking 220 Riverside Blvd - Tesla Destination,2016-01-21,2016,MANHATTAN,40.779338,-73.987493,6,NA,Public
DSL Marketing and Energy Icon Parking,2022-09-15,2022,MANHATTAN,40.761698,-73.978338,4,NA,Public - Credit card at all times
GGMC Parking 50 E 79th St Garage - Tesla Destination,2015-08-21,2015,MANHATTAN,40.776006,-73.961626999999993,2,NA,Public
GGMC Yorkville Car Park - Tesla Destination,2016-12-21,2016,MANHATTAN,40.782212,-73.95023,3,NA,Public
Popeyes,2023-01-14,2023,BRONX,40.876952,-73.845534,6,NA,Public
351 E 51st St - Garage 1st Floor,2023-01-08,2023,MANHATTAN,40.75489,-73.966134,10,NA,Public
CORP COMM 3 STATION 2 CC3,2023-01-26,2023,STATEN ISLAND,40.604154,-74.179546,2,NA,Public
PANYNJ LGA E GARAGE W1,2021-01-27,2021,MANHATTAN,40.770752,-73.866327,2,NA,Public
Enterprise Parking 147 Flatbush Avenue Extension - Tesla Destination,2019-03-31,2019,BROOKLYN,40.695154,-73.983861,4,NA,Public
Quik Park 365 Management LLC - Tesla Destination,2017-01-10,2017,BROOKLYN,40.677412,-73.990986,3,NA,Public
115 Fort Washington Ave,2021-11-03,2021,MANHATTAN,40.839756,-73.943345,2,NA,Public
Park Kwik - 110 Livingston - Tesla Destination,2019-10-11,2019,BROOKLYN,40.690987,-73.990131,4,NA,Public
The William Vale Hotel - Tesla Destination,2016-05-09,2016,BROOKLYN,40.722137,-73.956583,4,NA,Public
The Venetian - Garage,2024-04-11,2024,BROOKLYN,40.609178,-73.971448,20,NA,Public
391 Weirfield St,2023-06-12,2023,BROOKLYN,40.696040000000004,-73.90662,6,NA,Public
iPark 455 Central Park West - Tesla Destination,2016-12-21,2016,MANHATTAN,40.797743,-73.960441,3,NA,Public
ABM Parking 750 Lexington Ave LLC - Tesla Destination,2017-02-10,2017,MANHATTAN,40.76306,-73.968409,3,NA,Public
NYC FLEET DPRWFMARNA_2_L3,2023-11-04,2023,QUEENS,40.76033,-73.855286,NA,1,Public
MPG 923 5th Ave - Tesla Destination,2017-06-13,2017,MANHATTAN,40.773004,-73.966152,3,NA,Public
Factory House Condominium - Crescent St,2023-08-15,2023,QUEENS,40.749177,-73.942084,10,NA,Public
Champion Parking 74 LLC - Tesla Destination,2018-02-22,2018,MANHATTAN,40.780027,-73.982823,3,NA,Public
Residence Inn New York Manhattan - Tesla Destination,2015-06-22,2015,MANHATTAN,40.764261,-73.982974,2,NA,Public
PANYNJ LGATCGARAGE 5-5,2024-04-06,2024,QUEENS,40.769452,-73.8655,1,NA,Public
CORP COMM 3 STATION 6 CC3,2023-01-26,2023,STATEN ISLAND,40.603961,-74.179472,2,NA,Public
TATABROOKFIELD #3,2019-08-15,2019,MANHATTAN,40.755093,-73.955605,1,NA,Public
113 East 84th Street,2024-05-02,2024,MANHATTAN,40.77866,-73.95739,4,NA,Public
528 W 162nd Garage-PARK-it - Tesla Destination,2019-08-28,2019,MANHATTAN,40.836588,-73.941328,4,NA,Public
225 W 49th St,2022-02-17,2022,MANHATTAN,40.76154,-73.98518,4,NA,Public
Gramercy Plaza  - Parking Garage,2022-08-04,2022,MANHATTAN,40.736217,-73.986665,2,NA,Public
City Parking Linc Garage - Tesla Destination,2017-06-16,2017,BROOKLYN,40.719425,-73.963964,3,NA,Public
Standard Parking 2 Metrotech - Tesla Destination,2018-05-24,2018,BROOKLYN,40.693122,-73.985696,3,NA,Public
11 East 86th Street,2022-03-16,2022,MANHATTAN,40.78147,-73.95986,2,NA,Public
Standard Parking 910 5th Avenue - Tesla Destination,2024-07-01,2024,MANHATTAN,40.772175,-73.96637,3,NA,Public
33 Norman Ave,2021-09-08,2021,BROOKLYN,40.724591,-73.954512,4,NA,Public
Raymour & Flanigan - Tesla Supercharger,2023-11-30,2023,BROOKLYN,40.581175,-73.985218,NA,12,Public
Quik Park Brooklyn Bridge LLC - Tesla Destination,2016-03-11,2016,BROOKLYN,40.692941,-74.000298,3,NA,Public
Staten Island Mall Richmond Ave Entrance,2020-08-31,2020,STATEN ISLAND,40.581734,-74.168433,2,NA,Public
Icon Parking University 10 Parking - Tesla Destination,2016-04-30,2016,MANHATTAN,40.731887,-73.991906,3,NA,Public
iPark 200 E 70th Street - Tesla Destination,2016-12-09,2016,MANHATTAN,40.768283,-73.961149,3,NA,Public
Rapidpark 150 East 77th Street - Tesla Destination,2018-04-19,2018,MANHATTAN,40.773256,-73.959334,3,NA,Public
Eventi Hotel,2022-04-13,2022,MANHATTAN,40.747093,-73.99017,1,NA,Public
Standard Parking 270 Greenwich - Tesla Destination,2018-01-08,2018,MANHATTAN,40.715071,-74.012203,3,NA,Public
New York Hilton Midtown - Tesla Destination,2017-01-26,2017,MANHATTAN,40.762234,-73.979036,2,NA,Public
"Trump Golf Links, Ferry Point - Tesla Destination",2018-08-20,2018,BRONX,40.812459,-73.83447,8,NA,Public
L&L HOLDING CO. NUGGET L2,2024-04-24,2024,MANHATTAN,40.760403,-73.97105,2,NA,Public
Bical Auto Mall - Bical Parking,2023-01-16,2023,BROOKLYN,40.602038,-73.912661,14,NA,Public
25 Broadway,2023-12-21,2023,MANHATTAN,40.70568,-74.0136,3,NA,Public
Mayfair Apts - Garage,2022-07-27,2022,MANHATTAN,40.770958,-73.958625,20,NA,Public
Icon Parking Independent - Tesla Destination,2017-08-30,2017,MANHATTAN,40.766708,-73.955483,3,NA,Public
CORP COMM 3 STATION 7 CC3,2023-01-26,2023,STATEN ISLAND,40.604252,-74.179682,2,NA,Public
Icon Parking E 48th Street - Tesla Destination,2015-11-13,2015,MANHATTAN,40.753079,-73.968032,3,NA,Public
Bronx Honda Service,2023-11-28,2023,BRONX,40.83174,-73.84485,2,NA,Public
CENTERS HEALTHC EV-2,2024-02-14,2024,BROOKLYN,40.673561,-73.926135,2,NA,Public
50 N 5th St - Garage,2022-08-21,2022,BROOKLYN,40.718585,-73.962318,10,NA,Public
Staten Island Mall Tommys Tavern and Tap,2020-08-31,2020,STATEN ISLAND,40.581128,-74.167923,2,NA,Public
Central Parking - Tower 31,2023-04-27,2023,MANHATTAN,40.74709,-73.98667,2,NA,Public
300 E 74th St - Main Floor,2023-01-17,2023,MANHATTAN,40.769964,-73.957184,20,NA,Public
411 West 55th St,2021-12-22,2021,MANHATTAN,40.76709,-73.98733,4,NA,Public
Champion Parking 60 E 8th - Tesla Destination,2015-05-21,2015,MANHATTAN,40.730487,-73.993569,3,NA,Public
AMNH-PARKING STATION 4,2024-09-30,2024,MANHATTAN,40.781478,-73.974009,2,NA,Public
Icon Parking 240 East Broadway - Tesla Destination,2018-05-24,2018,MANHATTAN,40.714821,-73.987138,3,NA,Public
Knickerbocker Plaza Car Park - Lower Level,2024-05-07,2024,MANHATTAN,40.781785,-73.949642,10,NA,Public
Standard Parking Pierepoint Plaza - Tesla Destination,2018-05-24,2018,BROOKLYN,40.695115,-73.990993,3,NA,Public
550 Prospect Place,2022-08-01,2022,BROOKLYN,40.675159,-73.958501,7,NA,Public
The Shelton Condo - Garage,2022-04-19,2022,BROOKLYN,40.6914,-73.9411,20,NA,Public
Champion Parking W 76th Street - Tesla Destination,2015-08-19,2015,MANHATTAN,40.781547,-73.980475,3,NA,Public
NYC Parking 155 East 76th Street Garage Corp.,2023-08-22,2023,MANHATTAN,40.772927,-73.959558,6,NA,Public
MPG 121 Reade Street - Tesla Destination,2018-01-08,2018,MANHATTAN,40.716268,-74.009491,3,NA,Public
Empire Outlets Garage,2022-05-27,2022,STATEN ISLAND,40.644065,-74.075153,5,NA,Public
Champion Parking E 16th Street - Tesla Destination,2015-06-01,2015,MANHATTAN,40.735736,-73.988745,3,NA,Public
GGMC Parking Connaught - Tesla Destination,2016-12-28,2016,MANHATTAN,40.757146,-73.966135,3,NA,Public
200 Liberty,2022-09-15,2022,MANHATTAN,40.710179,-74.013169,2,NA,Public - Credit card at all times
Airway Inn at LaGuardia,2024-01-15,2024,QUEENS,40.76453,-73.886133,3,NA,Public
Rapidpark 480 Riverside (120th St) - Tesla Destination,2018-01-08,2018,MANHATTAN,40.811187,-73.963571,3,NA,Public
iPark 34 N 7th Street - Tesla Destination,2017-06-13,2017,BROOKLYN,40.72054,-73.962249,8,NA,Public
iPark 245 East 63rd Street - Tesla Destination,2016-12-09,2016,MANHATTAN,40.76332,-73.962938,3,NA,Public
Balfour Building - Balfour Garage,2023-04-12,2023,QUEENS,40.720087,-73.83711,20,NA,Public
Queens Center - Tesla Supercharger,2018-12-01,2018,QUEENS,40.735082,-73.87067,NA,10,Public
67-76 Booth St - 67-76 Booth Street,2024-06-03,2024,QUEENS,40.724533,-73.852131,10,NA,Public
iPark 22/34 N 6th Garage Corp - Tesla Destination,2017-03-14,2017,BROOKLYN,40.719338,-73.963081,4,NA,Public
Revel - Queens,2024-10-08,2024,QUEENS,40.748857,-73.939357,NA,7,Public
CENTERS HEALTHC EV-10,2024-02-14,2024,BROOKLYN,40.6732,-73.925696,2,NA,Public
KOEPPEL HYUNDAI CPE250 1,2023-06-01,2023,QUEENS,40.754038,-73.919413,NA,1,Public
IPark 99 3rd Avenue - Tesla Destination,2019-03-31,2019,BROOKLYN,40.683126,-73.982088,4,NA,Public
532 Neptune Upper Parking,2023-06-23,2023,MANHATTAN,40.57978,-73.97439,8,NA,Public
Quik Park 82nd Street LLC - Tesla Destination,2015-11-20,2015,MANHATTAN,40.774511,-73.952039,3,NA,Public
245 E 90th - Garage,2024-03-18,2024,MANHATTAN,40.782305,-73.951186,11,NA,Public
Rapidpark 148 E 33rd Street - Tesla Destination,2017-06-13,2017,MANHATTAN,40.745432,-73.97956,3,NA,Public
iPark 41 E 85th Street - Tesla Destination,2016-10-20,2016,MANHATTAN,40.779876,-73.958579,3,NA,Public
Icon Parking 205 E 63rd St - Tesla Destination,2016-10-20,2016,MANHATTAN,40.763981,-73.964368,2,NA,Public
Rapidpark 99 Park Ave - Tesla Destination,2018-05-24,2018,MANHATTAN,40.750013,-73.978525,3,NA,Public
The Westport,2022-08-03,2022,MANHATTAN,40.768211,-73.989479,2,NA,Public
Icon Parking 70 Gold Street - Tesla Destination,2018-02-28,2018,MANHATTAN,40.710019,-74.004385,3,NA,Public
Champion Parking 90 LLC - Tesla Destination,2016-12-28,2016,MANHATTAN,40.783085,-73.956304,3,NA,Public
StuyTown 420 E 20 - Garage 1,2022-06-14,2022,MANHATTAN,40.7338,-73.9769,19,NA,Public
51 W 56th St - Garage,2023-08-22,2023,MANHATTAN,40.76339,-73.975838,4,NA,Public
Icon Parking 111 8th Ave Parking - Tesla Destination,2017-01-24,2017,MANHATTAN,40.741515,-74.004608,4,NA,Public
Bruno's Bakery and Restaurant Forest Ave - Tesla Destination,2019-08-28,2019,STATEN ISLAND,40.629216,-74.111537,2,NA,Public
MPG 530 West 30th - Tesla Destination,2018-05-24,2018,MANHATTAN,40.75277,-74.00265,3,NA,Public
CENTERS HEALTHC EV-7,2024-02-14,2024,BROOKLYN,40.673563,-73.926362,2,NA,Public
610 Warren Street - Tesla Destination,2017-06-16,2017,BROOKLYN,40.681263,-73.981155,6,NA,Public
Quik Park 32 Debrosses LLC - Tesla Destination,2016-03-10,2016,MANHATTAN,40.723617,-74.010915,3,NA,Public
Icon Parking E 88th Street - Tesla Destination,2015-11-13,2015,MANHATTAN,40.776461,-73.944363,3,NA,Public
iPark NYC E 77th Street - Tesla Destination,2015-05-15,2015,MANHATTAN,40.773415,-73.959234,3,NA,Public
550 W. 45th St.,2022-01-19,2022,MANHATTAN,40.7624,-73.99635,4,NA,Public
200 East End Ave,2022-04-28,2022,MANHATTAN,40.77729,-73.94355,4,NA,Public
125 W 76th Street,2022-05-06,2022,MANHATTAN,40.780397,-73.977729,2,NA,Public
Stop and Shop 566 - Arverne By-the-sea,2022-03-25,2022,QUEENS,40.589813,-73.799949,2,NA,Public
I Park - 145 W 56th St,2020-08-01,2020,MANHATTAN,40.764609,-73.979517,2,NA,Public
GGMC Belltel Car Park - Tesla Destination,2017-03-21,2017,BROOKLYN,40.692579,-73.985252,3,NA,Public
PANYNJ JFK Y GARAGE 3,2021-01-27,2021,QUEENS,40.645758,-73.779314,2,NA,Public
300 W 135 St - Little Man Parking - Tesla Destination,2019-08-28,2019,MANHATTAN,40.816777,-73.947435,4,NA,Public
Revel - Brooklyn Superhub,2024-10-08,2024,BROOKLYN,40.699334,-73.949665,NA,25,Public
Icon Parking 301 E 57 Street - Tesla Destination,2016-04-30,2016,MANHATTAN,40.759127,-73.964684,3,NA,Public
City Parking Garment One Garage - Tesla Destination,2017-06-16,2017,MANHATTAN,40.746022,-73.978693,3,NA,Public
365 Bond,2024-06-21,2024,BROOKLYN,40.677677,-73.990321,6,NA,Public
GGMC The Cove - Tesla Destination,2017-06-07,2017,MANHATTAN,40.707738,-74.016845,3,NA,Public
152 Ashland - 1st Floor,2021-11-20,2021,BROOKLYN,40.6923,-73.9797,20,NA,Public
Rapid Park - 205 W 101st 2nd Floor,2021-10-28,2021,MANHATTAN,40.79766,-73.96838,4,NA,Public
Standard Parking 1360 Fulton Street - Tesla Destination,2018-05-24,2018,BROOKLYN,40.680168,-73.946022,2,NA,Public
Courtney House - Garage,2022-01-15,2022,MANHATTAN,40.737435,-73.996123,8,NA,Public
ABM Parking 866 UN Plaza - Tesla Destination,2018-04-18,2018,MANHATTAN,40.752641,-73.965187,3,NA,Public
COM1-1 COM1-1,2023-10-14,2023,MANHATTAN,40.747486,-74.000069,NA,1,Public
1 WATERLINE STATION#4,2022-03-10,2022,MANHATTAN,40.77292,-73.992546,2,NA,Public
Quik Park Columbia Garage LLC - Tesla Destination,2016-03-14,2016,MANHATTAN,40.795624,-73.971961,3,NA,Public
Champion Parking 230 W 55th Street - Tesla Destination,2015-06-22,2015,MANHATTAN,40.764748,-73.982676,3,NA,Public
ImPark Atlantic Terrace - Tesla Destination,2018-12-19,2018,BROOKLYN,40.683287,-73.973589,4,NA,Public
Highgate - Garage,2021-12-29,2021,MANHATTAN,40.784219,-73.950323,8,NA,Public
Rapidpark 340 94th Street - Tesla Destination,2017-08-23,2017,MANHATTAN,40.782091,-73.946029,3,NA,Public
The Veneto,2019-06-21,2019,MANHATTAN,40.756766,-73.967481,2,NA,Public
Townsend Ave - Parking lot Ground level,2023-01-02,2023,BRONX,40.847928,-73.911582,6,NA,Public
540 WAVERLY 2,2024-01-05,2024,BROOKLYN,40.681764,-73.965799,2,NA,Public
Icon Liberty View Parking - Tesla Destination,2017-06-13,2017,MANHATTAN,40.716079,-74.015929,3,NA,Public
Park N Go - E 121 St - Tesla Destination,2019-10-18,2019,MANHATTAN,40.800793,-73.9371,4,NA,Public
iPark 200 West Garage Corp. - Tesla Destination,2017-11-02,2017,MANHATTAN,40.746304,-73.995064,3,NA,Public
Gateway Center at Bronx Terminal Market,2020-07-15,2020,BRONX,40.822142,-73.931128,2,NA,Public
Rapidpark 575 1st Avenue - Tesla Destination,2017-06-13,2017,MANHATTAN,40.742735,-73.974296,3,NA,Public
QFA - Queens Family Court Municipal Garage,2019-04-01,2019,QUEENS,40.701647,-73.803843,3,NA,Public
Rapidpark 70 Riverside Dr - Tesla Destination,2016-10-20,2016,MANHATTAN,40.784831,-73.982085,2,NA,Public
KOEPPEL HYUNDAI CPE250 2,2023-06-01,2023,QUEENS,40.754044,-73.919245,NA,1,Public
iPark 1510 Lex Garage Corp. - Tesla Destination,2017-02-06,2017,MANHATTAN,40.787402,-73.950546,3,NA,Public
532 W 122nd St,2020-08-28,2020,MANHATTAN,40.811446,-73.960477,4,NA,Public
Northeast Bronx YMCA,2022-02-04,2022,BRONX,40.882786,-73.841986,4,NA,Public - Credit card at all times
900 8th Ave - Garage 1st Floor,2022-07-30,2022,MANHATTAN,40.76416,-73.984372,33,NA,Public
Sherman Parking - Tesla Destination,2019-01-17,2019,BROOKLYN,40.711023,-73.968134,4,NA,Public
City Parking RL Mercer Street - Tesla Destination,2017-06-16,2017,MANHATTAN,40.721437,-74.001238,3,NA,Public
Enterprise 57 - Garage,2022-08-01,2022,MANHATTAN,40.770821,-73.992675,8,NA,Public
Icon Parking 51 W 22nd - Tesla Destination,2016-01-21,2016,MANHATTAN,40.742059,-73.992694,3,NA,Public
Rapidpark 10 E 30th Street - Tesla Destination,2017-06-13,2017,MANHATTAN,40.74556,-73.985539,3,NA,Public
Icon 80 Riverside Blvd - Tesla Destination,2016-06-30,2016,MANHATTAN,40.775374,-73.989687,3,NA,Public
Parkit 310 E 11th Street - Tesla Destination,2016-12-27,2016,MANHATTAN,40.730017,-73.985512,3,NA,Public
AMNH-PARKING STATION 3,2024-09-30,2024,MANHATTAN,40.781511,-73.973807,2,NA,Public
MPG 543 W 110th Street Garage - Tesla Destination,2017-03-21,2017,MANHATTAN,40.803963,-73.966032,3,NA,Public
Icon 9-11 Park Ave - Tesla Destination,2017-06-13,2017,MANHATTAN,40.747299,-73.981039,3,NA,Public
Enterprise Parking 150 Myrtle Ave - Tesla Destination,2019-03-31,2019,BROOKLYN,40.693476,-73.982605,4,NA,Public
HAMPTON INN STATION 3,2021-01-27,2021,STATEN ISLAND,40.612671,-74.17882,2,NA,Public
iPark - 59 Allen Street Garage,2021-09-03,2021,MANHATTAN,40.717195,-73.991658,2,NA,Public
imPark 101 Bedford Ave - Tesla Destination,2018-01-09,2018,BROOKLYN,40.719751,-73.954866,3,NA,Public
Rapidpark 44 State Street - Tesla Destination,2017-06-13,2017,BROOKLYN,40.692062,-73.99816,3,NA,Public
484 43rd St,2021-12-08,2021,BROOKLYN,40.649116,-74.006479,2,NA,Public
Kips Bay Ct - Garage,2023-03-26,2023,MANHATTAN,40.741528,-73.978103,1,NA,Public
iPark NYC The Carnegie Garage - Tesla Destination,2015-06-24,2015,MANHATTAN,40.783536,-73.949507,3,NA,Public
GMC 400 East 56th Street,2020-07-02,2020,MANHATTAN,40.757223,-73.963011,6,NA,Public
King's County Parking,2022-09-15,2022,BROOKLYN,40.656148,-73.940355,4,NA,Public - Credit card at all times
305 East 80th Street,2022-04-25,2022,MANHATTAN,40.77397,-73.9539,4,NA,Public
210 W 76th St.,2022-03-18,2022,MANHATTAN,40.78126,-73.98044,4,NA,Public
C&C Parking Lot - Tesla Destination,2024-07-01,2024,MANHATTAN,40.881544,-73.870115,1,NA,Public
Central Parking 200 Chambers - Tesla Destination,2018-01-09,2018,MANHATTAN,40.716256,-74.012543,3,NA,Public
PLAZA HYUNDAI PUBLIC 1 LVL 3,2024-01-09,2024,BROOKLYN,40.618768,-73.945081,NA,1,Public
87-50 204th St - Level 1,2024-06-11,2024,QUEENS,40.721904,-73.762449,53,NA,Public
300 West End Ave - Basement Garage,2023-08-09,2023,MANHATTAN,40.781139,-73.983118,14,NA,Public
1065 Elton St,2021-09-24,2021,BROOKLYN,40.657441,-73.874619,4,NA,Public
140 Charles St - Garage,2022-09-15,2022,MANHATTAN,40.734018,-74.007895,11,NA,Public
Rapid Park - 205 W 101st 1st Floor,2024-05-02,2024,MANHATTAN,40.79766,-73.96838,4,NA,Public
PANYNJ JFK Y GARAGE 4,2019-11-02,2019,QUEENS,40.645841,-73.779222,2,NA,Public
Rapidpark 254 W 79th Street - Tesla Destination,2017-06-13,2017,MANHATTAN,40.78411,-73.980641,3,NA,Public
Gravity Charging Center,2024-03-04,2024,MANHATTAN,40.75878,-73.99293,NA,24,Public
iPark NYC 1025 83rd - Tesla Destination,2015-08-21,2015,MANHATTAN,40.779211,-73.960949,3,NA,Public
Quik Park West 23rd Street Garage LLC - Tesla Destination,2015-05-21,2015,MANHATTAN,40.746847,-74.001816,3,NA,Public
iPark NYC 455 Central Park West - Tesla Destination,2016-07-19,2016,MANHATTAN,40.797771,-73.96142,3,NA,Public
Glenwood Belmont Parking - Tesla Destination,2018-07-19,2018,MANHATTAN,40.760098,-73.988828,2,NA,Public
Dana Ford Lincoln,2014-11-01,2014,STATEN ISLAND,40.587162,-74.194747,1,NA,Public - Call ahead
iPark NYC 333 E 38th NYU - Tesla Destination,2015-12-14,2015,MANHATTAN,40.746565,-73.971591,3,NA,Public
303 W 66th St Apts - 303 W 66th RMA,2024-06-05,2024,MANHATTAN,40.776554,-73.98764,12,NA,Public
919 Third Avenue,2022-09-01,2022,MANHATTAN,40.759299,-73.968603,1,NA,Public
GGMC Parking Union Square Parking Garage - Tesla Destination,2015-11-13,2015,MANHATTAN,40.734939,-73.989409,6,NA,Public
MTP 625 W 57th Street - Tesla Destination,2017-06-13,2017,MANHATTAN,40.77108,-73.993142,3,NA,Public
231 E 94th Street,2022-05-23,2022,MANHATTAN,40.78351,-73.94888,4,NA,Public
92746 CHARGEPOINT 2,2022-08-18,2022,MANHATTAN,40.764945,-73.960624,2,NA,Public
NYC FLEET DPRWFMARINA-S2,2023-05-06,2023,QUEENS,40.761212,-73.857765,1,NA,Public
Parking Systems at 343 E 74th,2024-03-01,2024,MANHATTAN,40.76957,-73.95589,1,NA,Public
Staten Island Mall Macys,2020-08-31,2020,STATEN ISLAND,40.583139,-74.166332,2,NA,Public
99 Prospect Park W,2021-08-28,2021,BROOKLYN,40.66696,-73.975032,2,NA,Public
1 WATERLINE STATION#8,2022-03-08,2022,MANHATTAN,40.772871,-73.992514,2,NA,Public
Manhattan Beer Distributors,2021-12-07,2021,BRONX,40.807751,-73.901264,6,NA,Public
Bical Auto Mall - Bical Auto Mall DCFC,2023-08-30,2023,BROOKLYN,40.601815,-73.912651,NA,2,Public
161 W 61st St - Parking Garage,2023-07-17,2023,MANHATTAN,40.771538,-73.985872,10,NA,Public
Icon Parking OMNI - Tesla Destination,2018-10-17,2018,MANHATTAN,40.77592,-73.98313,3,NA,Public
2360 Amsterdam Ave - Basement 2,2022-12-03,2022,MANHATTAN,40.846036,-73.933078,10,NA,Public
CORP COMM 3 STATION 4 CC3,2023-01-26,2023,STATEN ISLAND,40.60401,-74.179524,2,NA,Public
Icon Parking 279 East 65th Street - Tesla Destination,2018-02-28,2018,MANHATTAN,40.764552,-73.962034,3,NA,Public
5935 Broadway,2021-06-25,2021,BRONX,40.888461,-73.899119,4,NA,Public
HAMPTON INN STATION 1,2020-11-05,2020,STATEN ISLAND,40.612696,-74.179012,2,NA,Public
Icon Parking Sutton 53 - Tesla Destination,2018-01-09,2018,MANHATTAN,40.755363,-73.963841,3,NA,Public
NYC Parking Kent,2021-08-17,2021,BROOKLYN,40.709168,-73.968491,1,NA,Public
Supercharge NYC,2022-07-26,2022,BROOKLYN,40.713589,-73.933059,NA,4,Public
430806  Avalon Brooklyn Bay,2019-02-06,2019,BROOKLYN,40.585908,-73.95379,5,NA,Public
506 W 181 St Garage-PARK-it - Tesla Destination,2019-08-28,2019,MANHATTAN,40.848358,-73.931743,4,NA,Public
GGMC Parking 8 E 33rd St Garage - Tesla Destination,2016-01-21,2016,MANHATTAN,40.747478,-73.98504,3,NA,Public
Mott Street Parking - Tesla Supercharger,2018-07-23,2018,MANHATTAN,40.717522,-73.997302,NA,2,Public
Helena 57 - Garage 1st Floor,2023-08-04,2023,MANHATTAN,40.770708,-73.99193,24,NA,Public
CENTERS HEALTHC EV-8,2024-02-14,2024,BROOKLYN,40.673181,-73.926415,2,NA,Public
Bay Street Landing Home Owners Association (BSL HOA),2024-09-12,2024,STATEN ISLAND,40.638653,-74.074971,6,NA,Public
Icon Parking 30 W 63rd St - Tesla Destination,2016-10-20,2016,MANHATTAN,40.770772,-73.981795,2,NA,Public
StuyTown 527 E 14 - Garage 6,2022-05-23,2022,MANHATTAN,40.7344,-73.9794,19,NA,Public
1235 Linden Blvd,2021-09-08,2021,BROOKLYN,40.654381,-73.913436,4,NA,Public
Icon Parking 101 W 15th - Tesla Destination,2018-08-10,2018,MANHATTAN,40.738371,-73.99688,4,NA,Public
Chelnik Parking NYC 880 5th - Tesla Destination,2015-12-17,2015,MANHATTAN,40.770292,-73.967735,2,NA,Public
"MTP Parking, The Helena - Tesla Destination",2016-08-19,2016,MANHATTAN,40.770709,-73.991725,2,NA,Public
Parkash 4769 LLC - 4769 White Plains,2022-08-05,2022,BRONX,40.905461,-73.849791,7,NA,Public
170 E End Ave,2021-08-21,2021,MANHATTAN,40.775792,-73.944015,2,NA,Public
iPark NYU 377 E 33rd Street - Tesla Destination,2017-08-23,2017,MANHATTAN,40.743405,-73.974735,3,NA,Public
The Carlton - Basement,2023-02-07,2023,MANHATTAN,40.78104,-73.956345,10,NA,Public
iPark - 67th Street,2021-06-01,2021,MANHATTAN,40.769134,-73.968707,1,NA,Public
540 WAVERLY 3,2024-01-06,2024,BROOKLYN,40.682187,-73.965917,2,NA,Public
Loews Regency New York - Tesla Destination,2016-10-13,2016,MANHATTAN,40.764423,-73.968865,3,NA,Public
Rapidpark 411 W 55th Street - Tesla Destination,2017-07-17,2017,MANHATTAN,40.766971,-73.987441,3,NA,Public
131 E 55th St - Garage Lower Level,2023-05-26,2023,MANHATTAN,40.760139,-73.970051,10,NA,Public
20RTAC GARAGE TOP,2023-02-21,2023,MANHATTAN,40.716132,-74.015557,2,NA,Public
iPark 34 N 7th Street 2 - Tesla Destination,2018-05-22,2018,BROOKLYN,40.720708,-73.96231,2,NA,Public
iPark 107 West 13th Street - Tesla Destination,2018-02-26,2018,MANHATTAN,40.736973,-73.99787,3,NA,Public
Superior Realty Group,2022-08-01,2022,BROOKLYN,40.61518,-74.031985,4,NA,Public
4320 Broadway-PARK-it - Tesla Destination,2019-08-28,2019,MANHATTAN,40.852461,-73.934084,4,NA,Public
Geneva on the Lake Resort,2022-10-26,2022,MANHATTAN,42.848887,-76.980257,4,NA,Public
86-70 Francis Lewis Blvd - Garage,2024-06-05,2024,QUEENS,40.72165,-73.760747,61,NA,Public
Matcha Electric,2024-05-15,2024,BROOKLYN,40.646,-74.024806,2,NA,Public
Icon Parking 524 East 73rd - Tesla Destination,2018-10-17,2018,MANHATTAN,40.766736,-73.951891,3,NA,Public
333 E 75th St.,2022-03-18,2022,MANHATTAN,40.7702,-73.95525,4,NA,Public
4 W 93rd St,2021-07-17,2021,MANHATTAN,40.789958,-73.966488,2,NA,Public
MTP Parking 568 Union Ave - Tesla Destination,2019-01-17,2019,BROOKLYN,40.718054,-73.951847,4,NA,Public
NYC FLEET DPRWFMARNA_4_L3,2023-11-04,2023,QUEENS,40.760345,-73.85546,NA,1,Public
Icon Parking 150 E 58th Street - Tesla Destination,2016-04-30,2016,MANHATTAN,40.76139,-73.968269,3,NA,Public
2 Lincoln Square,2024-04-04,2024,MANHATTAN,40.773498,-73.981374,4,NA,Public
169 West 95th St - Tesla Destination,2016-04-30,2016,MANHATTAN,40.793234,-73.970236,2,NA,Public
SGE - St. George Courthouse Garage,2016-08-08,2016,STATEN ISLAND,40.639469,-74.076912,3,NA,Public
iPark - The Tapestry,2024-07-11,2024,MANHATTAN,40.80239,-73.93438,20,NA,Public
Rapidpark 204 W 101st Street - Tesla Destination,2017-08-17,2017,MANHATTAN,40.797359,-73.968718,3,NA,Public
Bridge Towers Location 2,2023-11-03,2023,MANHATTAN,40.847958,-73.935109,9,NA,Public
Glenwood Management - Paramount Garage,2016-01-01,2016,MANHATTAN,40.74793,-73.974556,1,NA,Public
CORP COMM 3 STATION 10 CC3,2023-01-26,2023,STATEN ISLAND,40.60429,-74.17979,2,NA,Public
Fairmount Tenants Group - Garage,2022-03-20,2022,MANHATTAN,40.777035,-73.948773,12,NA,Public
PLG 123 Linden Apts - 1st Floor Garage,2023-07-20,2023,BROOKLYN,40.65261,-73.954377,20,NA,Public
419 Stuyvesant Ave,2021-12-22,2021,BROOKLYN,40.679727,-73.931347,2,NA,Public
1535 E 14th St - Basement 1,2022-10-31,2022,BROOKLYN,40.611982,-73.959622,8,NA,Public
GGMC Parking 75 Smith St Garage - Tesla Destination,2015-11-13,2015,BROOKLYN,40.689016,-73.988672,3,NA,Public
GMC Parking Narragansett - Tesla Destination,2017-08-10,2017,MANHATTAN,40.7758,-73.95087,3,NA,Public
613 Baltic - Garage,2021-09-27,2021,BROOKLYN,40.6807,-73.9805,5,NA,Public
Icon 299 Peal Street Seaport Parking - Tesla Destination,2016-06-30,2016,MANHATTAN,40.707679,-74.004687,3,NA,Public
Bristol Plaza - Garage,2023-06-26,2023,MANHATTAN,40.764955,-73.963483,8,NA,Public
iPark NYC Central Harlem Garage Corp. - Tesla Destination,2016-05-27,2016,MANHATTAN,40.80155,-73.948499,3,NA,Public
CENTERS HEALTHC EV-9,2024-02-14,2024,BROOKLYN,40.673233,-73.925648,2,NA,Public
JON - Jerome 190th Street Municipal Parking,2015-01-08,2015,BRONX,40.86334,-73.900066,5,NA,Public
GGMC Parking 350 W 43rd Street Garage - Tesla Destination,2016-01-21,2016,MANHATTAN,40.758586,-73.991341,3,NA,Public
Tribeca Green,2019-08-27,2019,MANHATTAN,40.71695,-74.014948,2,NA,Public
iPark 247 N 7th Street - Tesla Destination,2017-03-10,2017,BROOKLYN,40.715954,-73.954681,3,NA,Public
1345 Parking Garage - Tesla Destination,2017-12-07,2017,MANHATTAN,40.76351,-73.979364,3,NA,Public
NYU NYU # 1,2021-11-11,2021,MANHATTAN,40.72808,-73.99724,2,NA,Public
The Peninsula Hotel New York - Tesla Destination,2015-08-07,2015,MANHATTAN,40.761589,-73.975211,1,NA,Public
PANYNJ JFK Y GARAGE 5,2021-01-27,2021,QUEENS,40.645916,-73.779152,2,NA,Public
Champion Parking 60 East End Avenue - Tesla Destination,2016-01-07,2016,MANHATTAN,40.772712,-73.947045,3,NA,Public
Lincoln Square Garage,2022-07-10,2022,MANHATTAN,40.776152,-73.98282,1,NA,Public
"Littleman Driggs Parking, LLC - Tesla Destination",2018-05-24,2018,BROOKLYN,40.715033,-73.958595,3,NA,Public
Waterside Plaza Garage,2024-09-11,2024,MANHATTAN,40.73721,-73.974085,24,NA,Public
Hylan New Dorp Plaza,2022-05-27,2022,STATEN ISLAND,40.569064,-74.109548,2,NA,Public
33-10 Queens Blvd,2022-01-12,2022,QUEENS,40.744363,-73.93112,4,NA,Public
Rapid Park - 204 W 101st 2nd Floor,2022-01-26,2022,MANHATTAN,40.79743,-73.9687,4,NA,Public
ABM Parking Services 285 W 50th Street LLC - Tesla Destination,2016-03-10,2016,MANHATTAN,40.762411,-73.984495,3,NA,Public
4 W 21st St.,2022-02-15,2022,MANHATTAN,40.74057,-73.99147,4,NA,Public
1 WATERLINE STATION#5,2022-03-09,2022,MANHATTAN,40.772904,-73.992514,2,NA,Public
Chelsea29 - Tesla Destination,2024-07-01,2024,MANHATTAN,40.748395,-73.9937,6,NA,Public
430806  Avalon Brooklyn Bay (Shared),2019-02-06,2019,BROOKLYN,40.58711,-73.95346,1,NA,Public
Icon Parking 237 West Thames - Tesla Destination,2018-05-24,2018,MANHATTAN,40.708165,-74.016641,3,NA,Public
Icon Parking 200 E 32nd Street - Tesla Destination,2016-12-09,2016,MANHATTAN,40.744916,-73.980228,3,NA,Public
The Lucerne - First Floor - Garage 1st Floor,2023-04-13,2023,MANHATTAN,40.772356,-73.95332,20,NA,Public
1 WATERLINE STATION#10,2023-11-08,2023,MANHATTAN,40.772896,-73.992546,2,NA,Public
iPark NYC 183 E 73rd Street - Tesla Destination,2016-04-30,2016,MANHATTAN,40.770601,-73.960531,3,NA,Public
Center Park 250 Albany - Tesla Destination,2019-03-31,2019,MANHATTAN,40.709803,-74.015771,4,NA,Public
Park Kwik-300 Ashland - Tesla Destination,2019-10-11,2019,BROOKLYN,40.68608,-73.978252,4,NA,Public
Rapidpark 210 W 102nd Street - Tesla Destination,2017-08-17,2017,MANHATTAN,40.798108,-73.968204,3,NA,Public
PANYNJ JFK Y GARAGE 2,2019-11-02,2019,QUEENS,40.64572,-73.779384,2,NA,Public
Parkright 257 Gold Street - Tesla Destination,2015-11-13,2015,BROOKLYN,40.696848,-73.983071,3,NA,Public
Quik Park 1133 Garage LLC - Tesla Destination,2015-05-21,2015,MANHATTAN,40.755856,-73.984313,3,NA,Public
Icon Parking 990 Ave of the Americas - Tesla Destination,2016-05-03,2016,MANHATTAN,40.750844,-73.986188,3,NA,Public
171 E 84th St.,2022-08-02,2022,MANHATTAN,40.77798,-73.95555,4,NA,Public
Raymour & Flanigan RF#1091,2024-07-16,2024,BROOKLYN,40.581984,-73.984591,NA,4,Public
MPG 100 Jay Street - Tesla Destination,2017-08-17,2017,BROOKLYN,40.702194,-73.98672,3,NA,Public
ECS Main Office - Parking Lot,2021-11-30,2021,BROOKLYN,40.6742,-73.9958,2,NA,Public
COM1-1 COM1-2,2023-10-14,2023,MANHATTAN,40.747434,-74.000085,NA,1,Public
SWTCH Energy Inc.,2024-01-08,2024,BROOKLYN,40.7012,-73.9357,10,NA,Public
Quikpark 43-08 Crescent Street - Tesla Destination,2017-06-13,2017,MANHATTAN,40.748757,-73.943417,3,NA,Public
Standard Parking 15 Metrotech - Tesla Destination,2018-05-24,2018,BROOKLYN,40.693999,-73.983809,3,NA,Public
GGMC Parking 10 W 66th St Garage - Tesla Destination,2015-08-21,2015,MANHATTAN,40.772742,-73.979503,2,NA,Public
Atlantic Center - Tesla Supercharger,2019-09-30,2019,BROOKLYN,40.683715,-73.974337,NA,12,Public
iPark NYC 250 West Parking - Tesla Destination,2015-05-21,2015,MANHATTAN,40.742407,-73.999351,3,NA,Public
100 E 15th St - 100 E 15th St,2024-05-21,2024,MANHATTAN,40.735004000000004,-73.989356,10,NA,Public
iPark NYC 345 East Garage - Tesla Destination,2015-11-13,2015,MANHATTAN,40.773225,-73.952643,3,NA,Public
iPark 400 E 85th St - Tesla Destination,2019-01-17,2019,MANHATTAN,40.775953,-73.949738,4,NA,Public
WCS NS1 SOUTHERN,2020-06-12,2020,BRONX,40.850625,-73.881132,2,NA,Public
STATION 4TH FL MOTORGATE #2,2020-11-17,2020,MANHATTAN,40.764208000000004,-73.947198,2,NA,Public
Parkright 169 Ludlow Street - Tesla Destination,2018-05-24,2018,MANHATTAN,40.721713,-73.987533,3,NA,Public
PANYNJ LGATCGARAGE 5-1,2024-04-06,2024,QUEENS,40.769469,-73.865366,1,NA,Public
Mt Sinai Gustave Levy Pl - Garage,2021-09-07,2021,MANHATTAN,40.7901,-73.9537,28,NA,Public
Parkit 575 Washington - Tesla Destination,2015-06-01,2015,MANHATTAN,40.729364,-74.008513,6,NA,Public
Park Kwik LLC 50 Washington St. - Tesla Destination,2017-08-10,2017,BROOKLYN,40.702882,-73.990594,3,NA,Public
9 W 57th St - Garage,2022-07-09,2022,MANHATTAN,40.763867,-73.975023,13,NA,Public
GMC Copley Parking - Tesla Destination,2017-06-22,2017,MANHATTAN,40.775283,-73.981627,3,NA,Public
Prime Parking Systems - 155 E 68th Street - Tesla Destination,2015-07-23,2015,MANHATTAN,40.767743,-73.963665,3,NA,Public
Icon Parking 245 E 19th St. - Tesla Destination,2016-01-21,2016,MANHATTAN,40.735608,-73.983111,3,NA,Public
Champion Parking W 57th Street - Tesla Destination,2015-05-15,2015,MANHATTAN,40.76696,-73.983569,3,NA,Public
Parkit 221 Thompson Street - Tesla Destination,2015-11-13,2015,MANHATTAN,40.729234,-73.999013,3,NA,Public
IMPark 188 E 78th St - Tesla Destination,2019-03-31,2019,MANHATTAN,40.773665,-73.958333,2,NA,Public
1699 New York Ave - Tesla Destination,2024-07-01,2024,BROOKLYN,40.631576,-73.944294,4,NA,Public
JGU - Jerome Gun Hill Road Municipal Parking Garage,2024-01-30,2024,MANHATTAN,40.883002,-73.880698,4,NA,Public
GGMC Parking - 550 W 25th - Tesla Destination,2015-08-21,2015,MANHATTAN,40.74979,-74.005335,2,NA,Public
535 Carlton Ave,2022-07-08,2022,BROOKLYN,40.68092,-73.97076,4,NA,Public
Brooklyn Museum - Tesla Supercharger,2019-03-01,2019,BROOKLYN,40.669936,-73.963069,NA,10,Public
Waldorf Astoria New York - Tesla Destination,2015-03-19,2015,MANHATTAN,40.756722,-73.97406,2,NA,Public
Astor Place,2019-06-21,2019,MANHATTAN,40.7297,-73.991565,2,NA,Public
Liberty Green - Garage,2022-01-12,2022,MANHATTAN,40.7167,-74.01432,8,NA,Public
Tapestry - Garage,2023-03-26,2023,MANHATTAN,40.802628,-73.93443,1,NA,Public
Icon Parking 202 E 18th Street - Tesla Destination,2019-03-31,2019,MANHATTAN,40.735496,-73.985024,2,NA,Public
HAMPTON INN STATION 2,2021-01-27,2021,STATEN ISLAND,40.612688,-74.178948,2,NA,Public
Standard Parking 1 Metrotech - Tesla Destination,2018-05-24,2018,BROOKLYN,40.69306,-73.987222,3,NA,Public
MPG 266 E 97 St - Tesla Destination,2017-08-17,2017,MANHATTAN,40.785296,-73.947487,3,NA,Public
465 Pacific St - Garage,2022-08-22,2022,BROOKLYN,40.685493,-73.98254,17,NA,Public
imPark 422 E 79th Street - Tesla Destination,2017-06-07,2017,MANHATTAN,40.771879,-73.951627,3,NA,Public
Icon Parking 11 5th Ave - Tesla Destination,2016-01-21,2016,MANHATTAN,40.732085,-73.995829,3,NA,Public
AMNH-PARKING STATION 2,2024-09-30,2024,MANHATTAN,40.781414,-73.973682,2,NA,Public
GGMC Parking Carnegie Garage - Tesla Destination,2015-08-21,2015,MANHATTAN,40.78567,-73.954593,3,NA,Public
Staten Island Academy,2022-10-18,2022,STATEN ISLAND,40.59514,-74.1101,1,NA,Public - Credit card at all times
CENTERS HEALTHC EV-3,2024-02-14,2024,BROOKLYN,40.673561,-73.926143,2,NA,Public
Imperial Parking,2020-12-03,2020,MANHATTAN,40.744011,-73.974116,2,NA,Public
Rockefeller Univ - Garage Ground Floor,2022-07-07,2022,MANHATTAN,40.760823,-73.957536,25,NA,Public
Apple Parking 332 W 11th Street - Tesla Destination,2017-03-10,2017,MANHATTAN,40.735597,-74.007693,3,NA,Public
MPG 10 E 102nd Street - Tesla Destination,2017-08-30,2017,MANHATTAN,40.79136,-73.952155,3,NA,Public
Central Parking - 350 E 30th Street,2022-07-20,2022,MANHATTAN,40.741065,-73.975788,1,NA,Public
imPark 611 E 83rd Street - Tesla Destination,2016-12-27,2016,MANHATTAN,40.772681,-73.945488,3,NA,Public
277 Park Avenue,2021-10-19,2021,MANHATTAN,40.75519,-73.974142,20,NA,Public
145 Brooklyn Ave,2021-12-08,2021,BROOKLYN,40.674612,-73.944569,2,NA,Public
87-40 Francis Lewis Blvd - Garage,2024-06-10,2024,QUEENS,40.722417,-73.761698,42,NA,Public
GGMC Parking Stewart House Garage - Tesla Destination,2016-01-21,2016,MANHATTAN,40.731257,-73.992101,3,NA,Public
540 WAVERLY 1,2024-01-05,2024,BROOKLYN,40.682176,-73.96585,2,NA,Public
PANYNJ LGATCGARAGE 5-2,2024-04-06,2024,QUEENS,40.769481,-73.865372,1,NA,Public
The Stratford - Garage 1st Floor,2022-11-20,2022,MANHATTAN,40.76953,-73.9519,20,NA,Public
Champion Parking 113 LLC - Tesla Destination,2018-02-22,2018,MANHATTAN,40.80443,-73.961373,3,NA,Public
GGMC Parking 415 E 79th - Tesla Destination,2016-12-30,2016,MANHATTAN,40.771918,-73.951679,3,NA,Public
Parkright 300 E 77th St - Tesla Destination,2015-11-13,2015,MANHATTAN,40.771794,-73.955624,3,NA,Public
Pinnacle City - 1st Floor,2022-08-21,2022,BROOKLYN,40.720345,-73.961534,5,NA,Public
iPark NYC 88th Street Garage - Tesla Destination,2015-06-22,2015,MANHATTAN,40.788008,-73.971611,3,NA,Public
W 75th Parking Garage - Tesla Supercharger,2018-07-23,2018,MANHATTAN,40.780976,-73.980414,NA,4,Public
Manhattan Parking 110 LLC - Tesla Destination,2017-02-06,2017,MANHATTAN,40.803934,-73.966049,3,NA,Public
DES - Delancey and Essex Municipal Parking Garage,2018-04-16,2018,MANHATTAN,40.719319,-73.988197,8,4,Public
